{
"type": "FeatureCollection",
"name": "Fire_Dept_Facilities",
"crs": { "type": "name", "properties": { "name": "urn:ogc:def:crs:OGC:1.3:CRS84" } },
"features": [
{ "type": "Feature", "properties": { "objectid": 1, "firesta_": 45, "eng": 45, "lad": 14, "bc": 0, "med": "25", "spcl": " ", "spcl2": " ", "spcl3": " ", "location": "N 26TH ST & W YORK ST", "rad": "S", "active": " " }, "geometry": { "type": "Point", "coordinates": [ -75.174651979338705, 39.992152701389898 ] } },
{ "type": "Feature", "properties": { "objectid": 2, "firesta_": 34, "eng": 34, "lad": 0, "bc": 0, "med": "36", "spcl": " ", "spcl2": "PIPE", "spcl3": " ", "location": "N 28TH ST & W THOMPSON ST", "rad": "S", "active": " " }, "geometry": { "type": "Point", "coordinates": [ -75.181196280912502, 39.976201785238302 ] } },
{ "type": "Feature", "properties": { "objectid": 3, "firesta_": 49, "eng": 49, "lad": 0, "bc": 0, "med": "11", "spcl": " ", "spcl2": "PIPE", "spcl3": " ", "location": "S 13TH ST & SHUNK ST", "rad": "S", "active": " " }, "geometry": { "type": "Point", "coordinates": [ -75.169245391571195, 39.917792936866299 ] } },
{ "type": "Feature", "properties": { "objectid": 4, "firesta_": 54, "eng": 54, "lad": 0, "bc": 0, "med": "41B", "spcl": " ", "spcl2": " ", "spcl3": " ", "location": "N 63RD ST & LANCASTER AVE", "rad": "S", "active": " " }, "geometry": { "type": "Point", "coordinates": [ -75.246968765389894, 39.984696253694104 ] } },
{ "type": "Feature", "properties": { "objectid": 5, "firesta_": 66, "eng": 66, "lad": 0, "bc": 0, "med": " 0", "spcl": " ", "spcl2": " ", "spcl3": " ", "location": "RIDGE AVE & SHAWMONT AVE", "rad": "N", "active": " " }, "geometry": { "type": "Point", "coordinates": [ -75.236559488432903, 40.052284056153802 ] } },
{ "type": "Feature", "properties": { "objectid": 6, "firesta_": 37, "eng": 37, "lad": 0, "bc": 0, "med": " 0", "spcl": " ", "spcl2": " ", "spcl3": " ", "location": "W HIGHLAND AVE & SHAWNEE ST", "rad": "N", "active": " " }, "geometry": { "type": "Point", "coordinates": [ -75.208128836929305, 40.074722808078903 ] } },
{ "type": "Feature", "properties": { "objectid": 7, "firesta_": 63, "eng": 63, "lad": 0, "bc": 0, "med": " 0", "spcl": " ", "spcl2": " ", "spcl3": " ", "location": "1210 OAK LN", "rad": "N", "active": " " }, "geometry": { "type": "Point", "coordinates": [ -75.138227325094107, 40.054614061535801 ] } },
{ "type": "Feature", "properties": { "objectid": 8, "firesta_": 64, "eng": 64, "lad": 0, "bc": 0, "med": " 0", "spcl": " ", "spcl2": " ", "spcl3": " ", "location": "RISING SUN AVE & BENNER ST", "rad": "N", "active": " " }, "geometry": { "type": "Point", "coordinates": [ -75.099538529528004, 40.046499501942897 ] } },
{ "type": "Feature", "properties": { "objectid": 9, "firesta_": 56, "eng": 56, "lad": 0, "bc": 0, "med": "48B", "spcl": " ", "spcl2": " ", "spcl3": " ", "location": "RHAWN ST & VERREE RD", "rad": "N", "active": " " }, "geometry": { "type": "Point", "coordinates": [ -75.076530459603205, 40.073044792516399 ] } },
{ "type": "Feature", "properties": { "objectid": 10, "firesta_": 58, "eng": 58, "lad": 0, "bc": 0, "med": " 0", "spcl": " ", "spcl2": " ", "spcl3": " ", "location": "812 HENDRIX ST", "rad": "N", "active": " " }, "geometry": { "type": "Point", "coordinates": [ -75.017168419401401, 40.118356408877602 ] } },
{ "type": "Feature", "properties": { "objectid": 11, "firesta_": 39, "eng": 0, "lad": 30, "bc": 0, "med": "5", "spcl": " ", "spcl2": " ", "spcl3": " ", "location": "RIDGE AVE & CINNAMINSON ST", "rad": "N", "active": " " }, "geometry": { "type": "Point", "coordinates": [ -75.224636295152393, 40.039659930144701 ] } },
{ "type": "Feature", "properties": { "objectid": 12, "firesta_": 53, "eng": 53, "lad": 27, "bc": 0, "med": "43B", "spcl": " ", "spcl2": " ", "spcl3": " ", "location": "S 4TH ST & SNYDER AVE", "rad": "S", "active": " " }, "geometry": { "type": "Point", "coordinates": [ -75.153692961299598, 39.922127195792697 ] } },
{ "type": "Feature", "properties": { "objectid": 13, "firesta_": 78, "eng": 78, "lad": 0, "bc": 0, "med": "30", "spcl": " ", "spcl2": " ", "spcl3": " ", "location": "2 PIA WAY", "rad": "S", "active": " " }, "geometry": { "type": "Point", "coordinates": [ -75.232754800780896, 39.866897194455603 ] } },
{ "type": "Feature", "properties": { "objectid": 14, "firesta_": 41, "eng": 41, "lad": 24, "bc": 0, "med": "23", "spcl": " ", "spcl2": "DL", "spcl3": " ", "location": "N 61ST ST & W THOMPSON ST", "rad": "S", "active": " " }, "geometry": { "type": "Point", "coordinates": [ -75.240670208748597, 39.971139260272501 ] } },
{ "type": "Feature", "properties": { "objectid": 15, "firesta_": 35, "eng": 35, "lad": 25, "bc": 0, "med": "16", "spcl": " ", "spcl2": " ", "spcl3": " ", "location": "RIDGE AVE & MIDVALE AVE", "rad": "N", "active": " " }, "geometry": { "type": "Point", "coordinates": [ -75.194545332220699, 40.008930918593798 ] } },
{ "type": "Feature", "properties": { "objectid": 16, "firesta_": 73, "eng": 73, "lad": 0, "bc": 0, "med": "33", "spcl": " ", "spcl2": " ", "spcl3": " ", "location": "76TH AVE & OGONTZ AVE", "rad": "N", "active": " " }, "geometry": { "type": "Point", "coordinates": [ -75.156751061095505, 40.069892376339403 ] } },
{ "type": "Feature", "properties": { "objectid": 17, "firesta_": 51, "eng": 51, "lad": 29, "bc": 2, "med": "18", "spcl": " ", "spcl2": " ", "spcl3": " ", "location": "5931 OLD YORK RD", "rad": "N", "active": " " }, "geometry": { "type": "Point", "coordinates": [ -75.144307503321997, 40.044318799368099 ] } },
{ "type": "Feature", "properties": { "objectid": 18, "firesta_": 61, "eng": 61, "lad": 0, "bc": 0, "med": "29", "spcl": " ", "spcl2": "PIPE", "spcl3": " ", "location": "RISING SUN AVE & E SOMERVILLE AVE", "rad": "N", "active": " " }, "geometry": { "type": "Point", "coordinates": [ -75.117663109726493, 40.031506961733101 ] } },
{ "type": "Feature", "properties": { "objectid": 19, "firesta_": 50, "eng": 50, "lad": 12, "bc": 8, "med": "22", "spcl": " ", "spcl2": "PIPE", "spcl3": " ", "location": "N PARK AVE & W CAMBRIA ST", "rad": "N", "active": " " }, "geometry": { "type": "Point", "coordinates": [ -75.152519478268502, 39.997059870612397 ] } },
{ "type": "Feature", "properties": { "objectid": 20, "firesta_": 15, "eng": 0, "lad": 0, "bc": 0, "med": "0", "spcl": "MU-1", "spcl2": "PIPE", "spcl3": "MA-1", "location": "S DELAWARE AVE & WASHINGTON AVE", "rad": "S", "active": " " }, "geometry": { "type": "Point", "coordinates": [ -75.142301501318599, 39.933373061898699 ] } },
{ "type": "Feature", "properties": { "objectid": 21, "firesta_": 52, "eng": 52, "lad": 0, "bc": 0, "med": "32", "spcl": " ", "spcl2": "PIPE", "spcl3": " ", "location": "JACKSON ST & VAN KIRK ST", "rad": "N", "active": " " }, "geometry": { "type": "Point", "coordinates": [ -75.063310293699203, 40.018379033827003 ] } },
{ "type": "Feature", "properties": { "objectid": 22, "firesta_": 70, "eng": 70, "lad": 0, "bc": 0, "med": "42B", "spcl": "D2HQ", "spcl2": " ", "spcl3": " ", "location": "FOULKROD ST & LANGDON ST", "rad": "N", "active": " " }, "geometry": { "type": "Point", "coordinates": [ -75.098089465523799, 40.028747592127601 ] } },
{ "type": "Feature", "properties": { "objectid": 23, "firesta_": 36, "eng": 36, "lad": 20, "bc": 0, "med": "17", "spcl": " ", "spcl2": " ", "spcl3": " ", "location": "7818 FRANKFORD AVE", "rad": "N", "active": " " }, "geometry": { "type": "Point", "coordinates": [ -75.031051763204403, 40.040711953058199 ] } },
{ "type": "Feature", "properties": { "objectid": 24, "firesta_": 62, "eng": 62, "lad": 34, "bc": 0, "med": "6", "spcl": " ", "spcl2": " ", "spcl3": " ", "location": "BUSTLETON AVE & BOWLER ST", "rad": "N", "active": " " }, "geometry": { "type": "Point", "coordinates": [ -75.032290063751404, 40.091122910846998 ] } },
{ "type": "Feature", "properties": { "objectid": 25, "firesta_": 46, "eng": 46, "lad": 0, "bc": 13, "med": "49B", "spcl": "GF-3", "spcl2": " ", "spcl3": "MA-46", "location": "FRANKFORD AVE & LINDEN AVE", "rad": "N", "active": " " }, "geometry": { "type": "Point", "coordinates": [ -75.004961922066002, 40.054352444734697 ] } },
{ "type": "Feature", "properties": { "objectid": 26, "firesta_": 47, "eng": 47, "lad": 0, "bc": 0, "med": "40", "spcl": "D1HQ", "spcl2": "SQUAD", "spcl3": " ", "location": "3031 GRAYS FERRY AVE", "rad": "S", "active": " " }, "geometry": { "type": "Point", "coordinates": [ -75.194222052955894, 39.939393184848498 ] } },
{ "type": "Feature", "properties": { "objectid": 27, "firesta_": 69, "eng": 69, "lad": 0, "bc": 0, "med": "0", "spcl": "GF1", "spcl2": "QUINT", "spcl3": " ", "location": "8140 BARTRAM AVE", "rad": "S", "active": " " }, "geometry": { "type": "Point", "coordinates": [ -75.238514436223198, 39.8934930893219 ] } },
{ "type": "Feature", "properties": { "objectid": 28, "firesta_": 33, "eng": 33, "lad": 0, "bc": 0, "med": "0", "spcl": " ", "spcl2": "FOAM", "spcl3": " ", "location": "RICHMOND ST & KIRKBRIDE ST", "rad": "N", "active": " " }, "geometry": { "type": "Point", "coordinates": [ -75.066001507750599, 40.001425428600299 ] } },
{ "type": "Feature", "properties": { "objectid": 29, "firesta_": 44, "eng": 44, "lad": 0, "bc": 0, "med": "34", "spcl": " ", "spcl2": " ", "spcl3": " ", "location": "3420 HAVERFORD AVE", "rad": "S", "active": " " }, "geometry": { "type": "Point", "coordinates": [ -75.192639533236502, 39.9638279862749 ] } },
{ "type": "Feature", "properties": { "objectid": 30, "firesta_": 60, "eng": 60, "lad": 19, "bc": 0, "med": "37", "spcl": "HAZMT", "spcl2": "FOAM", "spcl3": " ", "location": "S 24TH ST & RITNER ST", "rad": "S", "active": " " }, "geometry": { "type": "Point", "coordinates": [ -75.186556824044004, 39.923127008717202 ] } },
{ "type": "Feature", "properties": { "objectid": 31, "firesta_": 29, "eng": 29, "lad": 0, "bc": 0, "med": "15", "spcl": "R-1", "spcl2": " ", "spcl3": " ", "location": "N 4TH ST & W GIRARD AVE", "rad": "S", "active": " " }, "geometry": { "type": "Point", "coordinates": [ -75.143363946737693, 39.969746412768501 ] } },
{ "type": "Feature", "properties": { "objectid": 32, "firesta_": 68, "eng": 68, "lad": 13, "bc": 7, "med": " 3", "spcl": "MD13", "spcl2": " ", "spcl3": " ", "location": "S 52ND ST & WILLOWS AVE", "rad": "S", "active": " " }, "geometry": { "type": "Point", "coordinates": [ -75.225017628006398, 39.946026950149403 ] } },
{ "type": "Feature", "properties": { "objectid": 33, "firesta_": 55, "eng": 55, "lad": 22, "bc": 0, "med": "39", "spcl": "MD-22", "spcl2": "SQRT", "spcl3": "LT", "location": "N FRONT ST & W LUZERNE ST", "rad": "N", "active": " " }, "geometry": { "type": "Point", "coordinates": [ -75.127062683774199, 40.0110971577936 ] } },
{ "type": "Feature", "properties": { "objectid": 34, "firesta_": 38, "eng": 38, "lad": 0, "bc": 0, "med": "0", "spcl": " ", "spcl2": " ", "spcl3": " ", "location": "KEYSTONE ST & MAGEE AVE", "rad": "N", "active": " " }, "geometry": { "type": "Point", "coordinates": [ -75.045372408732902, 40.020230119291099 ] } },
{ "type": "Feature", "properties": { "objectid": 35, "firesta_": 43, "eng": 43, "lad": 9, "bc": 0, "med": "7", "spcl": " ", "spcl2": "SQRT", "spcl3": " ", "location": "2110 MARKET ST", "rad": "S", "active": " " }, "geometry": { "type": "Point", "coordinates": [ -75.175607634723804, 39.953595301367699 ] } },
{ "type": "Feature", "properties": { "objectid": 36, "firesta_": 57, "eng": 57, "lad": 0, "bc": 0, "med": "9B", "spcl": " ", "spcl2": "SQRT", "spcl3": " ", "location": "S 56TH ST & CHESTNUT ST", "rad": "S", "active": " " }, "geometry": { "type": "Point", "coordinates": [ -75.232895981212707, 39.959672439382302 ] } },
{ "type": "Feature", "properties": { "objectid": 37, "firesta_": 72, "eng": 72, "lad": 0, "bc": 0, "med": "24", "spcl": " ", "spcl2": "SQUAD", "spcl3": " ", "location": "1127 W LOUDEN ST", "rad": "N", "active": " " }, "geometry": { "type": "Point", "coordinates": [ -75.143237048689201, 40.025795053309103 ] } },
{ "type": "Feature", "properties": { "objectid": 38, "firesta_": 71, "eng": 71, "lad": 28, "bc": 12, "med": "12", "spcl": " ", "spcl2": " ", "spcl3": "SNORK", "location": "LORETTO AVE & COTTMAN AVE", "rad": "N", "active": " " }, "geometry": { "type": "Point", "coordinates": [ -75.067670429351097, 40.051791235256097 ] } },
{ "type": "Feature", "properties": { "objectid": 39, "firesta_": 40, "eng": 40, "lad": 4, "bc": 0, "med": "19", "spcl": " ", "spcl2": "PIPE", "spcl3": " ", "location": "S 65TH ST & WOODLAND AVE", "rad": "S", "active": " " }, "geometry": { "type": "Point", "coordinates": [ -75.233907403404402, 39.9255547106008 ] } },
{ "type": "Feature", "properties": { "objectid": 40, "firesta_": 59, "eng": 59, "lad": 18, "bc": 0, "med": "4B", "spcl": " ", "spcl2": "DL", "spcl3": " ", "location": "W HUNTING PARK AVE & SCHUYLER ST", "rad": "N", "active": " " }, "geometry": { "type": "Point", "coordinates": [ -75.164777358901304, 40.011186489816403 ] } },
{ "type": "Feature", "properties": { "objectid": 41, "firesta_": 1, "eng": 0, "lad": 5, "bc": 1, "med": "35B", "spcl": " ", "spcl2": " ", "spcl3": "SNORK", "location": "711 S BROAD ST", "rad": "S", "active": " " }, "geometry": { "type": "Point", "coordinates": [ -75.165485966687299, 39.942204070901198 ] } },
{ "type": "Feature", "properties": { "objectid": 42, "firesta_": 2, "eng": 2, "lad": 3, "bc": 0, "med": "31", "spcl": " ", "spcl2": " ", "spcl3": " ", "location": "2426 N 2ND ST", "rad": "S", "active": " " }, "geometry": { "type": "Point", "coordinates": [ -75.1359043398338, 39.987507022897603 ] } },
{ "type": "Feature", "properties": { "objectid": 43, "firesta_": 3, "eng": 3, "lad": 0, "bc": 0, "med": " 0", "spcl": " ", "spcl2": "PIPE", "spcl3": " ", "location": "E MOYAMENSING AVE & WASHINGTON AVE", "rad": "S", "active": " " }, "geometry": { "type": "Point", "coordinates": [ -75.147902347982907, 39.9335230095393 ] } },
{ "type": "Feature", "properties": { "objectid": 44, "firesta_": 5, "eng": 5, "lad": 6, "bc": 11, "med": " 0", "spcl": " ", "spcl2": "PIPE", "spcl3": "LT", "location": "N 43RD ST & MARKET ST", "rad": "S", "active": " " }, "geometry": { "type": "Point", "coordinates": [ -75.207587443791496, 39.958235139784797 ] } },
{ "type": "Feature", "properties": { "objectid": 45, "firesta_": 6, "eng": 0, "lad": 16, "bc": 0, "med": "46B", "spcl": "AU-2", "spcl2": " ", "spcl3": " ", "location": "BELGRADE ST & E HUNTINGDON ST", "rad": "S", "active": " " }, "geometry": { "type": "Point", "coordinates": [ -75.118334789645004, 39.978832136229599 ] } },
{ "type": "Feature", "properties": { "objectid": 46, "firesta_": 7, "eng": 7, "lad": 10, "bc": 10, "med": "2", "spcl": "FCOM1", "spcl2": " ", "spcl3": " ", "location": "KENSINGTON AVE & CASTOR AVE", "rad": "N", "active": " " }, "geometry": { "type": "Point", "coordinates": [ -75.0998506592924, 40.004168500409797 ] } },
{ "type": "Feature", "properties": { "objectid": 47, "firesta_": 8, "eng": 0, "lad": 2, "bc": 4, "med": "44B", "spcl": " ", "spcl2": " ", "spcl3": "SNORK", "location": "N 4TH ST & ARCH ST", "rad": "S", "active": " " }, "geometry": { "type": "Point", "coordinates": [ -75.1465724054991, 39.952572486289696 ] } },
{ "type": "Feature", "properties": { "objectid": 48, "firesta_": 9, "eng": 9, "lad": 21, "bc": 0, "med": "10", "spcl": " ", "spcl2": "SQRT", "spcl3": " ", "location": "GERMANTOWN AVE & CARPENTER LN", "rad": "N", "active": " " }, "geometry": { "type": "Point", "coordinates": [ -75.187308595529998, 40.054912734192598 ] } },
{ "type": "Feature", "properties": { "objectid": 49, "firesta_": 10, "eng": 10, "lad": 0, "bc": 0, "med": "27", "spcl": " ", "spcl2": " ", "spcl3": " ", "location": "S 12TH ST & REED ST", "rad": "S", "active": " " }, "geometry": { "type": "Point", "coordinates": [ -75.163772146190595, 39.932687101182097 ] } },
{ "type": "Feature", "properties": { "objectid": 50, "firesta_": 11, "eng": 11, "lad": 0, "bc": 0, "med": "21", "spcl": " ", "spcl2": " ", "spcl3": " ", "location": "S 6TH ST & SOUTH ST", "rad": "S", "active": " " }, "geometry": { "type": "Point", "coordinates": [ -75.1525244435052, 39.942199149694197 ] } },
{ "type": "Feature", "properties": { "objectid": 51, "firesta_": 12, "eng": 12, "lad": 0, "bc": 0, "med": "0", "spcl": " ", "spcl2": " ", "spcl3": " ", "location": "4445 MAIN ST", "rad": "N", "active": " " }, "geometry": { "type": "Point", "coordinates": [ -75.226425697631697, 40.0267686128349 ] } },
{ "type": "Feature", "properties": { "objectid": 52, "firesta_": 13, "eng": 13, "lad": 0, "bc": 0, "med": "50B", "spcl": "AU-1", "spcl2": " ", "spcl3": " ", "location": "1541 PARRISH ST", "rad": "S", "active": " " }, "geometry": { "type": "Point", "coordinates": [ -75.162998670857903, 39.969525652597497 ] } },
{ "type": "Feature", "properties": { "objectid": 53, "firesta_": 14, "eng": 0, "lad": 15, "bc": 0, "med": "47B", "spcl": " ", "spcl2": " ", "spcl3": " ", "location": "FOULKROD ST & DARRAH ST", "rad": "N", "active": " " }, "geometry": { "type": "Point", "coordinates": [ -75.081347535071103, 40.016978254530201 ] } },
{ "type": "Feature", "properties": { "objectid": 54, "firesta_": 16, "eng": 16, "lad": 0, "bc": 0, "med": "26", "spcl": " ", "spcl2": " ", "spcl3": " ", "location": "BELMONT AVE & VIOLA ST", "rad": "S", "active": " " }, "geometry": { "type": "Point", "coordinates": [ -75.212784945153203, 39.976758986948397 ] } },
{ "type": "Feature", "properties": { "objectid": 55, "firesta_": 18, "eng": 18, "lad": 0, "bc": 0, "med": "38", "spcl": " ", "spcl2": "FOAM", "spcl3": " ", "location": "8205 E ROOSEVELT BLVD", "rad": "N", "active": " " }, "geometry": { "type": "Point", "coordinates": [ -75.043491692251493, 40.059803219174803 ] } },
{ "type": "Feature", "properties": { "objectid": 56, "firesta_": 19, "eng": 19, "lad": 8, "bc": 9, "med": "28", "spcl": " ", "spcl2": "PIPE", "spcl3": " ", "location": "E CHELTEN AVE & BAYNTON ST", "rad": "N", "active": " " }, "geometry": { "type": "Point", "coordinates": [ -75.171235990783799, 40.038866180971397 ] } },
{ "type": "Feature", "properties": { "objectid": 57, "firesta_": 20, "eng": 20, "lad": 23, "bc": 0, "med": "1", "spcl": " ", "spcl2": "PIPE", "spcl3": " ", "location": "N 10TH ST & CHERRY ST", "rad": "S", "active": " " }, "geometry": { "type": "Point", "coordinates": [ -75.155830120706995, 39.954646527188501 ] } },
{ "type": "Feature", "properties": { "objectid": 58, "firesta_": 22, "eng": 22, "lad": 31, "bc": 0, "med": "20", "spcl": "MD-31", "spcl2": " ", "spcl3": " ", "location": "ACADEMY RD & COMLY RD", "rad": "N", "active": " " }, "geometry": { "type": "Point", "coordinates": [ -74.984995460261601, 40.089998240302897 ] } },
{ "type": "Feature", "properties": { "objectid": 59, "firesta_": 24, "eng": 24, "lad": 0, "bc": 0, "med": "14", "spcl": " ", "spcl2": "DL", "spcl3": " ", "location": "S 20TH ST & FEDERAL ST", "rad": "S", "active": " " }, "geometry": { "type": "Point", "coordinates": [ -75.176944201533402, 39.936999274690898 ] } },
{ "type": "Feature", "properties": { "objectid": 60, "firesta_": 25, "eng": 25, "lad": 0, "bc": 0, "med": "8B", "spcl": " ", "spcl2": " ", "spcl3": " ", "location": "BOUDINOT ST & HART LN", "rad": "N", "active": " " }, "geometry": { "type": "Point", "coordinates": [ -75.122920477755201, 39.9935667653411 ] } },
{ "type": "Feature", "properties": { "objectid": 61, "firesta_": 27, "eng": 27, "lad": 0, "bc": 3, "med": "13", "spcl": " ", "spcl2": " ", "spcl3": " ", "location": "N 19TH ST & W OXFORD ST", "rad": "S", "active": " " }, "geometry": { "type": "Point", "coordinates": [ -75.166603426735804, 39.978518488758702 ] } },
{ "type": "Feature", "properties": { "objectid": 62, "firesta_": 28, "eng": 28, "lad": 0, "bc": 0, "med": "45B", "spcl": " ", "spcl2": "PIPE", "spcl3": " ", "location": "BELGRADE ST & E ONTARIO ST", "rad": "N", "active": " " }, "geometry": { "type": "Point", "coordinates": [ -75.100123556767798, 39.988972420744197 ] } },
{ "type": "Feature", "properties": { "objectid": 63, "firesta_": 32, "eng": 0, "lad": 0, "bc": 0, "med": "0", "spcl": "MU-2", "spcl2": "PIPE", "spcl3": "MA2", "location": "SCHUYLKILL RIVER N. OF PASSYUNK AVE", "rad": "S", "active": " " }, "geometry": { "type": "Point", "coordinates": [ -75.203198037217703, 39.921892028113803 ] } },
{ "type": "Feature", "properties": { "objectid": 64, "firesta_": 0, "eng": 0, "lad": 0, "bc": 0, "med": "0", "spcl": "FAB", "spcl2": " ", "spcl3": " ", "location": "240 SPRING GARDEN ST", "rad": "S", "active": " " }, "geometry": { "type": "Point", "coordinates": [ -75.143004107001104, 39.960448912343097 ] } },
{ "type": "Feature", "properties": { "objectid": 65, "firesta_": 0, "eng": 0, "lad": 0, "bc": 0, "med": "0", "spcl": "FTA", "spcl2": " ", "spcl3": " ", "location": "5200 PENNYPACK ST", "rad": "N", "active": " " }, "geometry": { "type": "Point", "coordinates": [ -75.0013219004814, 40.035976091940697 ] } },
{ "type": "Feature", "properties": { "objectid": 66, "firesta_": 0, "eng": 0, "lad": 0, "bc": 0, "med": "0", "spcl": "WHSE", "spcl2": " ", "spcl3": " ", "location": "N FRONT ST & W LUZERNE ST", "rad": "N", "active": " " }, "geometry": { "type": "Point", "coordinates": [ -75.127463025286801, 40.011262041019897 ] } },
{ "type": "Feature", "properties": { "objectid": 67, "firesta_": 0, "eng": 0, "lad": 0, "bc": 0, "med": "0", "spcl": "EMSHQ", "spcl2": " ", "spcl3": " ", "location": "3061 ISLAND AVE", "rad": "N", "active": " " }, "geometry": { "type": "Point", "coordinates": [ -75.238777337771197, 39.901903553925898 ] } },
{ "type": "Feature", "properties": { "objectid": 68, "firesta_": 0, "eng": 0, "lad": 0, "bc": 0, "med": "0", "spcl": "FMUS", "spcl2": " ", "spcl3": " ", "location": "N 02ND ST & QUARRY ST", "rad": "S", "active": " " }, "geometry": { "type": "Point", "coordinates": [ -75.142796971165097, 39.9533092070278 ] } },
{ "type": "Feature", "properties": { "objectid": 69, "firesta_": 0, "eng": 0, "lad": 0, "bc": 0, "med": " ", "spcl": "SHOP", "spcl2": " ", "spcl3": " ", "location": "W HUNTING PARK AVE & N FRONT ST", "rad": " ", "active": " " }, "geometry": { "type": "Point", "coordinates": [ -75.125232509612701, 40.012917200651998 ] } }
]
}
